{
  "Belgium": {
    "Limburg": [
      {
        "lat": 51.2397461,
        "long": 5.3374471,
        "name": "Famous Belgian Beer Shop",
        "url": "https://fbbevents.be/",
        "address" : "Slinkerstraat 26, 3920 Lommel"
      },
      {
        "lat": 51.2303375,
        "long": 5.3081974,
        "name": "BaZiel",
        "url": "https://www.belevingsbar-baziel.be/",
        "address" : "Dorp 40a, 3920 Lommel"
      },
      {
        "lat": 51.2385771,
        "long": 5.3772806,
        "name": "Den Brugwachter",
        "url": "https://www.denbrugwachter.be/",
        "address" : "Luikersteenweg 283, 3920 Lommel"
      }
      ,
      {
        "lat": 51.253030,
        "long": 5.333100,
        "name": "De Elze",
        "url": "http://www.de-elze.be/",
        "address" : "Elzen 49, 3920 Lommel"
      }
      ,
      {
        "lat": 51.232520,
        "long": 5.310050,
        "name": "Caf√© Erasmus",
        "url": "https://www.facebook.com/jef.erasmus",
        "address" : "Lepelstraat 40, 3920 Lommel"
      }
      ,
      {
        "lat": 51.231350,
        "long": 5.335910,
        "name": "Bierhandel Sevens",
        "url": "https://www.bierhandelsevens.be/",
        "address" : "Lutlommel 42, 3920 Lommel"
      }
      ,
      {
        "lat": 51.230450,
        "long": 5.309780,
        "name": "Restaurant Diana",
        "url": "https://www.restaurantdiana.be/",
        "address" : "Kerkstraat 2, 3920 Lommel"
      }
      ,
      {
        "lat": 51.230800,
        "long": 5.308080,
        "name": "Toersime Lommel",
        "url": "https://www.lommel.be/dienst/2063/toerisme-lommel/",
        "address" : "Dorp 14, 3920 Lommel"
      }
    ]
  }
}
