{
  "Belgium": {
     "Antwerpen" : [{
         "lat": 51.1949133,
        "long": 5.213592,
        "name": "Cafe De Kiezel",
        "url": "https://www.cafedekiezel.be/",
        "address" : "Sint-Jozefslaan 45, 2400 Mol"
    },
                    {
        "lat": 51.1949331,
        "long": 4.7301932,
        "name": "Bierhandel Willems en Zoon",
        "url": "https://www.bierhandelwillems.be",
        "address" : "Leopoldstraat 26, 2280 Grobbendonk"
                    }],
    "Online" : [{
        "name": "Beer Vikings",
        "url": "https://beervikings.be/"
    }],
    "Vlaams Brabant": [
      {
        "lat": 50.8780204,
        "long": 4.7037355,
        "name": "Belgian Beer Shop",
        "url": "https://www.bestbeersfrombelgium.eu",
        "address" : "Tiensestraat 31, 3000 Leuven, Belgium"
      }
    ],
    "Limburg": [
         {
        "lat": 51.0602513,
        "long": 5.1659807,
        "name": "Dranken Gijbels",
        "url": "https://www.prikentik.be/winkels/paal-dranken-gijbels",
        "address" : "Schoebroekstraat 63, 3583 Beringen, Belgium"
      },
      {
        "lat": 51.2397461,
        "long": 5.3374471,
        "name": "Famous Belgian Beer Shop",
        "url": "https://fbbevents.be/",
        "address" : "Slinkerstraat 26, 3920 Lommel"
      },
      {
        "lat": 51.2303375,
        "long": 5.3081974,
        "name": "BaZiel",
        "url": "https://www.belevingsbar-baziel.be/",
        "address" : "Dorp 40a, 3920 Lommel"
      },
      {
        "lat": 51.2385771,
        "long": 5.3772806,
        "name": "Den Brugwachter",
        "url": "https://www.denbrugwachter.be/",
        "address" : "Luikersteenweg 283, 3920 Lommel"
      }
      ,
      {
        "lat": 51.253030,
        "long": 5.333100,
        "name": "De Elze",
        "url": "http://www.de-elze.be/",
        "address" : "Elzen 49, 3920 Lommel"
      }
      ,
      {
        "lat": 51.232520,
        "long": 5.310050,
        "name": "Café Erasmus",
        "url": "https://www.facebook.com/jef.erasmus",
        "address" : "Lepelstraat 40, 3920 Lommel"
      }
      ,
      {
        "lat": 51.231350,
        "long": 5.335910,
        "name": "Bierhandel Sevens",
        "url": "https://www.bierhandelsevens.be/",
        "address" : "Lutlommel 42, 3920 Lommel"
      }
      ,
      {
        "lat": 51.230450,
        "long": 5.309780,
        "name": "Restaurant Diana",
        "url": "https://www.restaurantdiana.be/",
        "address" : "Kerkstraat 2, 3920 Lommel"
      }
      ,
      {
        "lat": 51.230800,
        "long": 5.308080,
        "name": "Toerisme Lommel",
        "url": "https://www.lommel.be/dienst/2063/toerisme-lommel/",
        "address" : "Dorp 14, 3920 Lommel"
        }
      ,
      {
        "lat": 50.994840,
        "long": 5.338650,
        "name": "Marlou",
        "url": "https://www.marlou.be/",
        "address" : "Heikensstraat 11, 3520 Zonhoven"
      }
       ,
      {
        "lat": 51.133010,
        "long": 5.449920,
        "name": "Rozemarijn Dranken",
        "url": "https://www.rozemarijn-peer.be/",
        "address" : "Steenweg Wijchmaal 2, 3990 Peer"
      }
       ,
      {
        "lat": 51.231339,
        "long": 5.340010,
        "name": "'t Kafeeke",
        "url": "https://www.tkafeeke.be/",
        "address" : "Lutlommel 90, 3920 Lommel"
      }
       ,
      {
        "lat": 51.125870,
        "long": 5.256060,
        "name": "Prik & Tik Leopoldsburg",
        "url": "https://www.prikentikleopoldsburg.be/",
        "address" : "Lommelsesteenweg 23, 3970 Leopoldsburg"
      }
      ,
      {
        "lat": 51.230450,
        "long": 5.308870,
        "name": "Melchior",
        "url": "https://website-5767826193689280303230-cafe.business.site/",
        "address" : "Dorp 35, 3920 Lommel"
      }
      ,
      {
        "lat": 51.231850,
        "long": 5.305400,
        "name": "Eetcafe D'n Timmer",
        "url": "http://www.eetcafedntimmer.be/",
        "address" : "Gasstraat 15, 3920 Lommel"
      }
      ,
      {
        "lat": 51.263850,
        "long": 5.344650,
        "name": "De Weteringshoeve",
        "url": "https://www.deweteringshoeve.be/",
        "address" : "In de Hutten 10, 3920 Lommel"
      }
      ,
      {
        "lat": 51.228080,
        "long": 5.315640,
        "name": "Bar-a-bass",
        "url": "https://www.facebook.com/BaraBassCafe/",
        "address" : "Koning Leopoldlaan 3, 3920 Lommel"
      }
      ,
      {
        "lat": 51.250900,
        "long": 5.312130,
        "name": "'t Wilgenhuys",
        "url": "https://www.wilgenhuys.be/",
        "address" : "Jacob Smitsdreef 2, 3920 Lommel"
      }
      ,
      {
        "lat": 51.226230,
        "long": 5.314900,
        "name": "Vill'Artistiek",
        "url": "https://www.facebook.com/villartistiek/",
        "address" : "Stationsstraat 27, 3920 Lommel"
      }
      ,
      {
        "lat": 51.129680,
        "long": 5.458400,
        "name": "The Other Side",
        "url": "https://www.facebook.com/toslive/",
        "address" : "Burkel 10, 3990 Peer"
      }
      ,
      {
        "lat": 51.252579,
        "long": 5.547770,
        "name": "Beer Vikings",
        "url": "https://www.beervikings.com/",
        "address" : "Abdijstraat 2, 3930 Hamont-Achel"
      }
      ,
      {
        "lat": 51.229400,
        "long": 5.312790,
        "name": "Café René",
        "address" : "Kerkstraat 53, 3920 Lommel"
      }
      ,
      {
        "lat": 51.228210,
        "long": 5.282350,
        "name": "'t Heeske",
        "url": "https://menucards.cc/THeeskeVzw",
        "address" : "Jan Frans Willemsstraat 79, 3920 Lommel"
      }
      ,
      {
        "lat": 51.231110,
        "long": 5.319930,
        "name": "Prik & Tik Lommel",
        "url": "https://www.prikentik.be/winkels/lommel-prik-tik-lommel",
        "address" : "Kloosterstraat 71, 3920 Lommel"
      }
      ,
      {
        "lat": 51.209960,
        "long": 5.420500,
        "name": "Bar DeLuux",
        "url": "https://www.bardeluux.be/",
        "address" : "Dorpsstraat 178, 3900 Overpelt"
      }
      ,
      {
        "lat": 51.082200,
        "long": 5.197590,
        "name": "Dranken Vertessen",
        "url": "http://www.dranken-vertessen.be/",
        "address" : "Zuidstraat 198, 3581 Beverlo"
      }
      ,
      {
        "lat": 51.128340,
        "long": 5.802320,
        "name": "Kuva Dranken",
        "url": "https://www.kuvadranken.be/",
        "address" : "Venlosesteenweg 115/Bus 1, 3640 Kinrooi"
      }
    ]
  }
}
